{
  "meta": {
    "code": 200,
    "requestId": "5ac5eb54351e3d4df8cebb05"
  },
  "response": {
    "venues": [
      {
        "name": "Нова пошта (відділення №14)",
        "contact": {
          "phone": "+380322901911",
          "formattedPhone": "+380 322 901 911",
          "twitter": "_novaposhta_"
        },
        "location": {
          "address": "вул. Словацького, 5",
          "crossStreet": "вул. Петра Дорошенка",
          "lat": 49.83832099953952,
          "lng": 24.023289687789234
        }
      },
      {
        "id": "Test 2 id",
        "name": "Test 2 name",
        "contact": {
          "phone": "Test 2 number",
          "formattedPhone": "+380 322 901 911",
          "twitter": "_novaposhta_"
        },
        "location": {
          "address": "Test 2 address",
          "crossStreet": "вул. Петра Дорошенка",
          "lat": 49.83832099953952,
          "lng": 24.023289687789234
        }
      },
      {
        "id": "Test 3 id",
        "name": "Test 3 name",
        "contact": {
          "phone": "Test 3 number",
          "formattedPhone": "+380 322 901 911",
          "twitter": "_novaposhta_"
        },
        "location": {
          "address": "Test 3 address",
          "crossStreet": "вул. Петра Дорошенка",
          "lat": 49.83832099953952,
          "lng": 24.023289687789234
        }
      },
      {
        "id": "Test 4 id",
        "name": "Test 4 name",
        "contact": {
          "phone": "Test 4 number",
          "formattedPhone": "+380 322 901 911",
          "twitter": "_novaposhta_"
        },
        "location": {
          "address": "Test 4 address",
          "crossStreet": "вул. Петра Дорошенка",
          "lat": 49.83832099953952,
          "lng": 24.023289687789234
        }
      }
    ]
  }
}